{"info":[{"name":"Yonge & Summerhill","latitude":43.6811,"longitude":-79.391,"address":"10 Scrivener Square","city":"Toronto-Central","postal-code":"M4W3Y9","phone":"(416) 922-0403","fax":"(416) 922-3104"},{"name":"Queens Quay & Yonge","latitude":43.6432,"longitude":-79.3721,"address":"2 Cooper Street","city":"Toronto-Central","postal-code":"M5E1A4","phone":"(416) 864-6777","fax":"(416) 864-6863"},{"name":"Rideau & King Edward","latitude":45.4285,"longitude":-75.6864,"address":"275 Rideau Street","city":"Ottawa","postal-code":"K1N5Y3","phone":"(613) 789-5226","fax":"(613) 241-7453"},{"name":"Hwy 401 & Weston","latitude":43.7124,"longitude":-79.5311,"address":"2625D Weston Road","city":"Toronto-North York","postal-code":"M9N3W2","phone":"(416) 243-3320","fax":"(416) 243-0148"},{"name":"Bayview & Sheppard","latitude":43.7686,"longitude":-79.3865,"address":"2901 Bayview Avenue - Unit #125","city":"Toronto-North York","postal-code":"M2K1E6","phone":"(416) 222-7658","fax":"(416) 222-0610"},{"name":"Bayfield & Hanmer","latitude":44.4167,"longitude":-79.7153,"address":"534 Bayfield Street","city":"Barrie","postal-code":"L4M5A2","phone":"(705) 722-1046","fax":"(705) 722-0854"},{"name":"Innes & Tenth Line","latitude":45.4585,"longitude":-75.4941,"address":"4220 Innes Rd","city":"Ottawa-Orleans","postal-code":"K4A5E6","phone":"(613) 837-5527","fax":"(613) 837-7026"},{"name":"Hwy 7 & Weston","latitude":43.7905,"longitude":-79.5492,"address":"7850 Weston Road","city":"Woodbridge","postal-code":"L4L9N8","phone":"(905) 851-2500","fax":"(905) 851-8168"},{"name":"Cornwall & Trafalgar","latitude":43.4578,"longitude":-79.6784,"address":"321 Cornwall Drive","city":"Oakville","postal-code":"L6J7Z5","phone":"(905) 845-8100","fax":"(905) 845-8140"},{"name":"Yonge & Davis","latitude":44.056,"longitude":-79.4794,"address":"17555 Yonge Street","city":"Newmarket","postal-code":"L3Y5H6","phone":"(905) 895-6341","fax":"(905) 895-5210"},{"name":"Steeles & Markham","latitude":43.8351,"longitude":-79.2523,"address":"5979 Steeles Avenue East","city":"Toronto-Scarborough","postal-code":"M1V5P7","phone":"(416) 335-1100","fax":"(416) 335-1105"},{"name":"Winston Churchill & Aquitaine \/ Battleford","latitude":43.5829,"longitude":-79.758,"address":"6975 Meadowvale Town Centre","city":"Mississauga","postal-code":"L5N2W7","phone":"(905) 286-0188","fax":"(905) 286-5751"},{"name":"Bank & Walkley","latitude":45.365,"longitude":-75.661,"address":"1980 Bank Street","city":"Ottawa","postal-code":"K1V0E8","phone":"(613) 523-7763","fax":"(613) 523-5407"},{"name":"Howard & E.C. Row Expwy","latitude":42.276,"longitude":-83.0064,"address":"3165 Howard Avenue","city":"Windsor","postal-code":"N8X3Y9","phone":"(519) 972-1772","fax":"(519) 250-1206"},{"name":"Erin Mills & Eglinton","latitude":43.5558,"longitude":-79.7119,"address":"5100 Erin Mills Parkway","city":"Mississauga","postal-code":"L5M4Z5","phone":"(905) 607-7900","fax":"(905) 607-7901"},{"name":"Hwy 27 South of Langstaff","latitude":43.786,"longitude":-79.627,"address":"8260 Hwy. # 27","city":"Woodbridge","postal-code":"L4H0R9","phone":"(905) 264-7366","fax":"(905) 264-7742"},{"name":"Dundas & Trafalgar","latitude":43.4859,"longitude":-79.7198,"address":"251 Oak Walk Dr.","city":"Oakville","postal-code":"L6H6M3","phone":"(905) 257-6300","fax":"(905) 257-6303"},{"name":"King S. & William","latitude":43.4647,"longitude":-80.5226,"address":"115 King Street South","city":"Waterloo","postal-code":"N2J1P2","phone":"(519) 886-4970","fax":"(519) 886-1572"},{"name":"Scottsdale & Stone Road West","latitude":43.5144,"longitude":-80.2392,"address":"615 Scottsdale Drive","city":"Guelph","postal-code":"N1G3P4","phone":"(519) 823-5080","fax":"(519) 823-2139"},{"name":"Laird & Eglinton","latitude":43.71,"longitude":-79.361,"address":"147 Laird Avenue","city":"Toronto-Central","postal-code":"M4G4K1","phone":"(416) 425-6282","fax":"(416) 425-6151"},{"name":"Brock & Kingston","latitude":43.8465,"longitude":-79.0723,"address":"1899 Brock Rd Unit K3","city":"Pickering","postal-code":"L1V4H7","phone":"(905) 427-9830","fax":"(905) 427-9832"},{"name":"Sandalwood & Kennedy","latitude":43.7278,"longitude":-79.7951,"address":"170 Sandalwood Parkway E.","city":"Brampton","postal-code":"L6Z1Y5","phone":"(905) 846-4373","fax":"(905) 846-7316"},{"name":"Bayview & St John","latitude":44.0177,"longitude":-79.4477,"address":"15830 Bayview Ave.","city":"Aurora","postal-code":"L4G7Y3","phone":"(905) 727-7288","fax":"(905) 727-7122"},{"name":"Carling & Woodroffe","latitude":45.3699,"longitude":-75.7694,"address":"2164 Carling Avenue","city":"Ottawa","postal-code":"K2A1H1","phone":"(613) 828-7145","fax":"(613) 828-2909"},{"name":"Steeles & Hwy 410","latitude":43.6781,"longitude":-79.719,"address":"545 Steeles Ave. E.","city":"Brampton","postal-code":"L6W4S2","phone":"(905) 454-7980","fax":"(905) 454-6506"},{"name":"Hwy 7 & Woodbine","latitude":43.8493,"longitude":-79.3558,"address":"3075 Highway 7 East","city":"Markham","postal-code":"L3R5Y5","phone":"(905) 940-2768","fax":"(905) 940-2101"},{"name":"First & Pine","latitude":44.5029,"longitude":-80.2176,"address":"1 First Street","city":"Collingwood","postal-code":"L9Y1A1","phone":"(705) 445-3341","fax":"(705) 445-9945"},{"name":"Hwy. 11B & William Street","latitude":45.3332,"longitude":-79.2058,"address":"91 King William Street Unit 1","city":"Huntsville","postal-code":"P1H1E5","phone":"(705) 789-2591","fax":"(705) 789-9852"},{"name":"King & Spadina","latitude":43.6454,"longitude":-79.3946,"address":"415 King Street West","city":"Toronto-Central","postal-code":"M5V1K1","phone":"(416) 598-1482","fax":"(416) 598-3716"},{"name":"King North & Northfield","latitude":43.5004,"longitude":-80.5328,"address":"571 King Street North","city":"Waterloo","postal-code":"N2L5Z7","phone":"(519) 884-8511","fax":"(519) 884-5101"},{"name":"Yonge & Hwy 7","latitude":43.8419,"longitude":-79.4294,"address":"8783 Yonge Street","city":"Richmond Hill","postal-code":"L4C6Z1","phone":"(905) 886-3511","fax":"(905) 886-3611"},{"name":"Bloor & Royal York","latitude":43.6481,"longitude":-79.5086,"address":"2946 Bloor Street West","city":"Toronto-Etobicoke","postal-code":"M8X1B7","phone":"(416) 239-3065","fax":"(416) 239-5266"},{"name":"Golf Links & Hwy 403","latitude":43.2267,"longitude":-79.9517,"address":"737 Golf Links Road","city":"Ancaster","postal-code":"L9K1L5","phone":"(905) 304-9608","fax":"(905) 304-9611"},{"name":"Wilson & Dufferin","latitude":43.7327,"longitude":-79.4545,"address":"675 Wilson Avenue","city":"Toronto-North York","postal-code":"M3K1E3","phone":"(416) 636-5349","fax":"(416) 636-7253"},{"name":"Dixie & Hwy 7","latitude":43.7133,"longitude":-79.724,"address":"80 Peel Centre Drive","city":"Bramalea","postal-code":"L6T4G8","phone":"(905) 793-8027","fax":"(905) 793-8543"},{"name":"Gibb & Stevenson","latitude":43.891,"longitude":-78.8815,"address":"400 Gibb St.","city":"Oshawa","postal-code":"L1L1Z2","phone":"(905) 723-5721","fax":"(905) 723-9703"},{"name":"Avenue & Lawrence","latitude":43.7309,"longitude":-79.4192,"address":"1838-1844 Avenue Road","city":"Toronto-North York","postal-code":"M5M3Z5","phone":"(416) 785-6389","fax":"(416) 785-6398"},{"name":"Speedvale & Stevenson","latitude":43.5668,"longitude":-80.2577,"address":"378 Speedvale Avenue East","city":"Guelph","postal-code":"N1E1N5","phone":"(519) 824-7900","fax":"(519) 824-6600"},{"name":"Richmond & Fanshawe Pk","latitude":43.027,"longitude":-81.2817,"address":"109 Fanshawe Park Road","city":"London","postal-code":"N5X3W1","phone":"(519) 660-1366","fax":"(519) 660-4829"},{"name":"Mapleview Near Hwy 400","latitude":44.3377,"longitude":-79.6899,"address":"37 Caplan Avenue","city":"Barrie","postal-code":"L4N6K3","phone":"(705) 726-6220","fax":"(705) 726-1971"},{"name":"Queen & Coxwell","latitude":43.6668,"longitude":-79.3152,"address":"1654 Queen Street East","city":"Toronto-Central","postal-code":"M4L1G3","phone":"(416) 691-9758","fax":"(416) 686-6896"},{"name":"Ottawa & Homer Watson","latitude":43.4238,"longitude":-80.4836,"address":"721 Ottawa Street South","city":"Kitchener","postal-code":"N2E0A9","phone":"(519) 576-4523","fax":"(519) 576-9468"},{"name":"Hunt Club & Merivale","latitude":45.3341,"longitude":-75.7251,"address":"543 West Hunt Club Rd.","city":"Ottawa-Nepean","postal-code":"K2G5W5","phone":"(613) 224-4333","fax":"(613) 224-0310"},{"name":"Southdown & Royal Windsor","latitude":43.5077,"longitude":-79.6314,"address":"930 Southdown Road","city":"Mississauga","postal-code":"L5J2Y4","phone":"(905) 822-2281","fax":"(905) 823-2676"},{"name":"Midland & Princess","latitude":44.2619,"longitude":-76.5745,"address":"1089 Midland Avenue","city":"Kingston","postal-code":"K7P2X8","phone":"(613) 384-2299","fax":"(613) 384-9156"},{"name":"Strandherd & Greenbank","latitude":45.2653,"longitude":-75.7457,"address":"120 Riocan Avenue","city":"Ottawa-Nepean","postal-code":"K2J5G4","phone":"(613) 825-1160","fax":"(613) 825-0629"},{"name":"Main Street East","latitude":43.5267,"longitude":-79.8666,"address":"830 Main Street East","city":"Milton","postal-code":"L9T0J4","phone":"(905) 864-7030","fax":"(905) 864-8842"},{"name":"Hwy 24 & Hwy 401","latitude":43.4194,"longitude":-80.3247,"address":"101 Holiday Inn Drive, Unit C","city":"Cambridge","postal-code":"N3C1Z3","phone":"(519) 658-4261","fax":"(519) 658-4677"},{"name":"Front & Parliament","latitude":43.6515,"longitude":-79.3664,"address":"222 Front Street East","city":"Toronto-Central","postal-code":"M5A1E7","phone":"(416) 214-0311","fax":"(416) 214-9291"},{"name":"Bathurst and Centre","latitude":43.8074,"longitude":-79.4509,"address":"180 Promenade Circle","city":"Thornhill","postal-code":"L4J0E4","phone":"(905) 889-7787","fax":"(905) 889-7203"},{"name":"Great Northern & Second Line","latitude":46.5436,"longitude":-84.318,"address":"616 Great Northern Road","city":"Sault Ste. Marie","postal-code":"P6B4Z9","phone":"(705) 759-7740","fax":"(705) 759-1020"},{"name":"Big Bay Point Rd & Yonge","latitude":44.356,"longitude":-79.6506,"address":"461 Big Bay Point Road","city":"Barrie","postal-code":"L4N3Z3","phone":"(705) 739-0162","fax":"(705) 739-8507"},{"name":"Centennial & Queenston","latitude":43.2322,"longitude":-79.7656,"address":"75 Centennial Parkway North","city":"Stoney Creek","postal-code":"L8E2P2","phone":"(905) 560-4970","fax":"(905) 560-4977"},{"name":"Mavis & Britannia","latitude":43.6122,"longitude":-79.688,"address":"5925 Rodeo Drive","city":"Mississauga","postal-code":"L5R4C1","phone":"(905) 568-4064","fax":"(905) 568-4702"},{"name":"Wonderland & Southdale","latitude":42.9375,"longitude":-81.2789,"address":"3050 Wonderland Road South","city":"London","postal-code":"N6L1A6","phone":"(519) 471-4930","fax":"(519) 471-8379"},{"name":"Waterloo & Algonquin","latitude":48.4798,"longitude":-81.3376,"address":"Hollinger Court","city":"Timmins","postal-code":"P4N4X5","phone":"(705) 268-4600","fax":"(705) 267-5161"},{"name":"Richmond & Kirkwood","latitude":45.3944,"longitude":-75.7471,"address":"222 Richmond Road","city":"Ottawa","postal-code":"K1Z6W6","phone":"(613) 729-1735","fax":"(613) 729-8739"},{"name":"Hazeldean & Main","latitude":45.2734,"longitude":-75.928,"address":"6065 Hazeldean Road","city":"Stittsville","postal-code":"K2S1B9","phone":"(613) 836-3063","fax":"(613) 836-6152"},{"name":"Lansdowne West & Parkway","latitude":44.2826,"longitude":-78.3402,"address":"879 Lansdowne Street West","city":"Peterborough","postal-code":"K9J1Z5","phone":"(705) 743-9955","fax":"(705) 743-9936"},{"name":"Mccowan & Hwy 7","latitude":43.8727,"longitude":-79.2856,"address":"192 Bullock Drive","city":"Markham","postal-code":"L3P1W2","phone":"(905) 472-8600","fax":"(905) 472-7997"},{"name":"Eglinton & Warden","latitude":43.7278,"longitude":-79.2934,"address":"1900 Eglinton Avenue East","city":"Toronto-Scarborough","postal-code":"M1L2L9","phone":"(416) 755-6751","fax":"(416) 755-3932"},{"name":"Exmouth & Lambton Mall Rd.","latitude":42.9849,"longitude":-82.3567,"address":"1450 Quinn Drive","city":"Sarnia","postal-code":"N7T1H4","phone":"(519) 542-6836","fax":"(519) 542-0615"},{"name":"Long Lake South of Regent","latitude":46.4422,"longitude":-81.005,"address":"2400 Long Lake Road","city":"Sudbury-South End","postal-code":"P3E5H5","phone":"(705) 522-8000","fax":"(705) 522-1948"},{"name":"Barton & Kenilworth","latitude":43.2523,"longitude":-79.8141,"address":"1149 Barton Street East","city":"Hamilton","postal-code":"L8H2V2","phone":"(905) 544-8010","fax":"(905) 544-3555"},{"name":"Montreal Rd E of Vanier Pkwy","latitude":45.4357,"longitude":-75.6623,"address":"230 Montreal Road","city":"Ottawa-Vanier","postal-code":"K1L6C6","phone":"(613) 745-1523","fax":"(613) 745-7416"},{"name":"Dundas & Jane","latitude":43.6657,"longitude":-79.4901,"address":"3520 Dundas Street West","city":"Toronto-Central","postal-code":"M6S2S1","phone":"(416) 762-8215","fax":"(416) 762-8537"},{"name":"Edward Street & Talisman Drive","latitude":44.9088,"longitude":-79.37,"address":"155 Edward Street","city":"Gravenhurst","postal-code":"P1P1K8","phone":"(705) 687-2641","fax":"(705) 687-8876"},{"name":"9Th Avenue & 16Th Street","latitude":44.5706,"longitude":-80.9416,"address":"1613 9Th Avenue East","city":"Owen Sound","postal-code":"N4K3G5","phone":"(519) 376-0761","fax":"(519) 376-0196"},{"name":"York Mills & Leslie","latitude":43.7544,"longitude":-79.3591,"address":"808 York Mills Road","city":"Toronto","postal-code":"M3B1X8","phone":"(416) 444-3700","fax":"(416) 444-3710"},{"name":"Dundas & Mavis","latitude":43.5683,"longitude":-79.6315,"address":"3020 Elmcreek Rd.","city":"Mississauga","postal-code":"L5B4M3","phone":"(905) 949-6100","fax":"(905) 949-6200"},{"name":"Guelph Line & Upper Middle Rd","latitude":43.3657,"longitude":-79.8217,"address":"2025 Guelph Line","city":"Burlington","postal-code":"L7P4M8","phone":"(905) 335-0640","fax":"(905) 335-3448"},{"name":"Appleby & Upper Middle Rd","latitude":43.3939,"longitude":-79.7921,"address":"2000 Appleby Line","city":"Burlington","postal-code":"L7L6M6","phone":"(905) 336-6200","fax":"(905) 336-6203"},{"name":"Glendale & Merritt","latitude":43.1318,"longitude":-79.2263,"address":"343 Glendale Ave.","city":"St. Catharines","postal-code":"L2T0A1","phone":"(905) 641-1169","fax":"(905) 641-4672"},{"name":"Hazeldean & Castlefrank","latitude":45.2995,"longitude":-75.8864,"address":"457 Hazeldean Rd.","city":"Ottawa-Kanata","postal-code":"K2L1V1","phone":"(613) 592-5416","fax":"(613) 836-7544"},{"name":"Taunton & Brock","latitude":43.9169,"longitude":-78.9654,"address":"170 Taunton Road West","city":"Whitby","postal-code":"L1R3H8","phone":"(905) 655-6090","fax":"(905) 655-6851"},{"name":"Lynden & Wayne Gretzky Pkwy","latitude":43.1739,"longitude":-80.2385,"address":"84 Lynden Road","city":"Brantford","postal-code":"N3R6B8","phone":"(519) 752-1779","fax":"(519) 752-8934"},{"name":"Barrack & King","latitude":44.2318,"longitude":-76.4803,"address":"34 Barrack Street","city":"Kingston","postal-code":"K7K7A9","phone":"(613) 549-5092","fax":"(613) 549-1153"},{"name":"Dupont & Spadina","latitude":43.6755,"longitude":-79.4043,"address":"232 Dupont Street","city":"Toronto-Central","postal-code":"M5R1V7","phone":"(416) 922-7066","fax":"(416) 922-8440"},{"name":"Kingston & Morningside","latitude":43.7714,"longitude":-79.186,"address":"4525 Kingston Road","city":"Toronto-Scarborough","postal-code":"M1E2P1","phone":"(416) 282-2034","fax":"(416) 282-2413"},{"name":"Terry Fox & Campeau","latitude":45.3096,"longitude":-75.9169,"address":"24 - 300 Earl Grey Drive","city":"Ottawa-Kanata","postal-code":"K2T1B8","phone":"(613) 592-1849","fax":"(613) 592-2371"},{"name":"Appleby Line & New Street","latitude":43.3692,"longitude":-79.7542,"address":"501 Appleby Line","city":"Burlington","postal-code":"L7L2Y1","phone":"(905) 639-0337","fax":"(905) 639-1931"},{"name":"Lawrence & Don Mills","latitude":43.7363,"longitude":-79.3461,"address":"195 the Donway West","city":"Toronto-North York","postal-code":"M3C0H6","phone":"(416) 447-0491","fax":"(416) 447-0763"},{"name":"Hwy. 12B & 11","latitude":44.6091,"longitude":-79.4376,"address":"293 Coldwater Road","city":"Orillia","postal-code":"L3V3M1","phone":"(705) 325-9413","fax":"(705) 325-0147"},{"name":"Queen & Dufferin","latitude":43.6417,"longitude":-79.4324,"address":"11 Brock Avenue","city":"Toronto-Central","postal-code":"M6K2K6","phone":"(416) 532-7283","fax":"(416) 532-5064"},{"name":"Yonge & Dundas","latitude":43.6563,"longitude":-79.3813,"address":"595 Bay Street","city":"Toronto-Central","postal-code":"M5G2C2","phone":"(416) 979-9978","fax":"(416) 979-0988"},{"name":"Dufferin & Major Mackenzie","latitude":43.8612,"longitude":-79.4873,"address":"9970 Dufferin Street","city":"Vaughan","postal-code":"L6A4K5","phone":"(905) 879-1139","fax":"(905) 879-1149"},{"name":"Burnhamthorpe & Hwy 427","latitude":43.6415,"longitude":-79.5778,"address":"662 Burnhamthorpe Road","city":"Toronto-Etobicoke","postal-code":"M9C2Z4","phone":"(416) 621-0954","fax":"(416) 621-0650"},{"name":"Fairview and Maple","latitude":43.3305,"longitude":-79.8199,"address":"1235 Fairview Street","city":"Burlington","postal-code":"L7S2H9","phone":"(905) 333-3111","fax":"(905) 333-3218"},{"name":"Market South & Icomm","latitude":43.1369,"longitude":-80.2624,"address":"50 Market Street South","city":"Brantford","postal-code":"N3S2E3","phone":"(519) 753-0541","fax":"(519) 753-3519"},{"name":"Hwy 5 & Hwy 6","latitude":43.3128,"longitude":-79.9156,"address":"74 Dundas Street East","city":"Waterdown","postal-code":"L0R2H2","phone":"(905) 689-6855","fax":"(905) 689-8371"},{"name":"Clarke & Dundas","latitude":43.0025,"longitude":-81.1736,"address":"348 Clarke Road","city":"London","postal-code":"N5W6G4","phone":"(519) 451-0220","fax":"(519) 452-1870"},{"name":"Broadway & First","latitude":43.9212,"longitude":-80.0882,"address":"40 B Broadway","city":"Orangeville","postal-code":"L9W1J4","phone":"(519) 942-0188","fax":"(519) 942-9651"},{"name":"Russell & William Street","latitude":44.3535,"longitude":-78.7367,"address":"35 Russell Street West","city":"Lindsay","postal-code":"K9V2W8","phone":"(705) 324-5511","fax":"(705) 324-7287"},{"name":"3Rd Line & Rebecca","latitude":43.4108,"longitude":-79.7062,"address":"1527 Rebecca Street","city":"Oakville","postal-code":"L6L1Z8","phone":"(905) 827-5072","fax":"(905) 827-5797"},{"name":"Airport & Bovaird","latitude":43.7623,"longitude":-79.7223,"address":"9970 Airport Rd.,","city":"Brampton","postal-code":"L6S0C5","phone":"(905) 792-7010","fax":"(905) 792-8980"},{"name":"Worthington & Bovaird","latitude":43.6815,"longitude":-79.8153,"address":"31 Worthington Ave.","city":"Brampton","postal-code":"L7A2Y7","phone":"(905) 495-3881","fax":"(905) 495-3882"},{"name":"Front & Division","latitude":44.1028,"longitude":-77.5796,"address":"150 Front Street","city":"Trenton","postal-code":"K8V4N8","phone":"(613) 392-3797","fax":"(613) 392-1438"},{"name":"Lasalle & Barrydowne","latitude":46.5199,"longitude":-80.9408,"address":"1467 Lasalle Boulevard","city":"Sudbury-New Sudbury","postal-code":"P3A1Z8","phone":"(705) 566-3882","fax":"(705) 566-0850"},{"name":"Hwy 34 & Hwy 17","latitude":45.6097,"longitude":-74.6115,"address":"56 Main Street East","city":"Hawkesbury","postal-code":"K6A1A3","phone":"(613) 632-2121","fax":"(613) 632-4551"},{"name":"Highland & Westmount","latitude":43.4388,"longitude":-80.5097,"address":"324 Highland Road West Unit 6","city":"Kitchener","postal-code":"N2M5G2","phone":"(519) 745-8781","fax":"(519) 745-9791"}]}